,comune,provincia,statale non statale,omr,sistema museale territoriale,sistema museale urbano,sistema museale tematico,casa museo,q1.1 sa denominazione museo istituto,q1.2 sa indirizzo museo istituto,q1.3 sa localita museo istituto,q1.4 sa ubicazione/edificio museo istituto,cap,q1.8 sa telefono museo istituto,q1.9 sa fax museo istituto,q1.10 sa email museo istituto,q1.11 sa sito web museo istituto,latitudine,longitudine
0,farnese,viterbo,non mibact,omr,sistema museale del lago di bolsena,,proust,,museo civico ferrante rittatore vonwiller,via colle san martino 16,farnese,,1010.0,761458849,761458849,museofarnesevirgilio.it museofarnesesimulabo.it,www.simulabo.it,42.5498,11.72706
1,roma,roma,non mibact,omr,,,,,ecomuseo del litorale romano,via del fosso di dragoncello 172,longarina/ostia,area impianto idrovoro di ostia antica,124.0,65651764,65650609,crt.ecomuseotin.it,www.ecomuseocrt.it,41.746559999999995,12.31766
2,collepardo,frosinone,mibact,,,,,,abbazia di trisulti,via trisulti 8,,,3010.0,77547024,,,,41.76406,13.37067
3,roma,roma,non mibact,,,,,,museo storico della motorizzazione militare dellesercito,viale dellesercito 170,cecchignola,caserma arpaia,143.0,06 50237374,06 50237374,museocomlogpro.esercito.difesa.it,www.comlogpro.esercito.difesa.it,41.805890000000005,12.49709
4,roma,roma,non mibact,,,,,,museo storico della comunicazione,viale europa 190,,eur ministero dello sviluppo economico,144.0,06 54443000,06 54221673,museo.comunicazionisviluppoeconomico.gov.it,www.sviluppoeconomico.gov.it/museo,41.83129,12.46763
5,roma,roma,mibact,,,,,,complesso di capo di bove,via appia antica 222,,area archeologica presso villa/casale lungo la via appia antica,178.0,67806686,678358742,,htpp//www.archeoroma.beniculturali.it,41.84397,12.529739999999999
6,roma,roma,non mibact,omr,,sistema musei in comune,,,musei capitolini,piazza del campidoglio 1,,c/o palazzo palazzo dei conservatori palazzo nuovo palazzo caffarelli palazzo clementino palazzo senatorio,186.0,667102475,66785488,info.museicapitolinicomune.roma.it,www.museicapitolini.org,41.89335,12.4829
7,roma,roma,non mibact,,,,,,museo teatrale siae del burcardo,via del sudario 44,,,186.0,66819471,668194727,biblioteca.burcardosiae.it,,41.89597,12.475530000000001
8,roma,roma,non mibact,,,,,,museo criminologico,via del gonfalone 29,,,186.0,668899442,668215347,museo.criminologicogiustizia.it,www.museocriminologico.it,41.897729999999996,12.46664
9,roma,roma,non mibact,omr,,,,,museo darte sacra di san giovanni dei fiorentini,via degli acciaioli 2,,chiesa di san giovanni dei fiorentini,186.0,06 6869892,,infosangiovannideifiorentini.net,www.sangiovannideifiorentini.net/index.php/museo/,41.899809999999995,12.464369999999999
10,cerveteri,roma,mibact,,,,,,necropoli della banditaccia,piazzale mario moretti gi della necropoli,,,53.0,69940001,69940001,sba embeniculturali.it,htpp//etruriameridionale.beniculturali.it,42.00724,12.103660000000001
11,anticoli corrado,roma,non mibact,,sistema medaniene,,,,civico museo darte moderna e contemporanea,piazza santa vittoria 2,anticoli corrado,edificio,22.0,774936657,774936657,museoanticolihotmail.it,,42.01028,12.9882
12,roma,roma,mibact,,,,,,complesso archeologico di malborghetto,via barlassina 1,via flaminia km 1900,,188.0,633625595,633616477,,www.archeoroma.it,42.052170000000004,12.48683
13,mazzano romano,roma,non mibact,omr,,,,,museo civico archeologico virtuale di narce mavna,piazza giovanni xxiii 12,,,60.0,,,infomavna.it,www.mavna.it,42.20442,12.39963
14,caprarola,viterbo,mibact,,,,,,palazzo farnese,piazzale farnese 1,,,1032.0,0761 646052,0761 646052,,,42.32799,12.23776
15,rieti,rieti,non mibact,,,,,,museo diocesano,via cintia 83,,,2100.0,746482720,746200228,diocesi rietilibero.it,www.museodiocesanorieti.it,42.402409999999996,12.858369999999999
16,viterbo,viterbo,non mibact,omr,,sistema museale urbano di viterbo,,,museo del sodalizio dei facchini di santa rosa,via s. pellegrino 60 62,,,1100.0,761345157,,,,42.41386,12.1059
17,ventotene,latina,non mibact,omr,,,,,museo storico archeologico comunale,piazza castello 1,ventotene,forte torre borbonico sede comunale,4020.0,771854226,771854061,riservaventotenecomune.ventotene.lt.it,www.riservaventotene.it,40.796358000000005,13.432965
18,formia,latina,mibact,,,,,,museo archeologico nazionale,via vitruvio 184,,palazzo comunale,4023.0,0771 770382,0771 770382,sba laz.museoformiabeniculturali.it,www.archeolz.arti.beniculturali.it,41.255707,13.6061587
19,latina,latina,non mibact,omr,,,musart,,museo civico duilio cambellotti,piazza san marco 1,,,4100.0,773486913,773652640,museicomune.latina.it,,41.464299,12.9041746
20,sezze,latina,non mibact,,,,,,museo lepino della civilta contadina,via piemonte 35,sezze scalo,,4018.0,773876154,773876154,alessandrodinormalibero.it,,41.495245000000004,13.044572
21,sezze,latina,non mibact,omr,,,demos,,museo etnografico del giocattolo territoriale,via umberto primo 46/48,,ludoteca comunale,4018.0,773803797,773803797,ludotecacomune.sezze.lt.it,,41.498302,13.060682
22,sezze,latina,non mibact,omr,sistema dei monti lepini,,,,museo etnografico del giocattolo ludus,via umberto i 46/48,,palazzo rappini,4018.0,0773 8081.402 339 7879255,0773 808403,museinsieme.sezzegmail.com,www.comune.sezze.lt.it/pagina432 museo del giocattolo.html,41.498302,13.060682
23,roccagorga,latina,non mibact,omr,sistema dei monti lepini,,demos,,etnomuseo monti lepini,piazza risorgimento 4,,palazzo baronale,4010.0,773958792,773960000,infoetnomuseo.it,www.etnomuseo.it,41.524705,13.156568
24,roccagorga,latina,non mibact,,,,,,museo civico assi dellaeronautica,via domenico menta,roccagorga,edificio scolastico giuseppe restaini,4010.0,773959098,773960170,comune.roccagorgalibero.it,,41.524963,13.1573663
25,ceprano,frosinone,non mibact,omr,,,,,museo civico archeologico di gregellae,corso della repubblica,ceprano,sede comunale,3024.0,7759174237,775912754,museo.cepranolibero.it,,41.545371,13.5160425
26,bassiano,latina,non mibact,omr,,,demos,,museo delle scritture aldo manuzio,via aldo manuzio 117,bassiano,,4010.0,773355013,773355013,mdscomune.bassiano.lt.it,,41.549186999999996,13.032689999999999
27,arce,frosinone,non mibact,,,,,,museo territoriale gente di ciociaria,piazza umberto i snc,,,3032.0,776523171,776524092,infoxvcomunitamontanalazio.it,www.xvcomunitamontanalazio.it,41.587742,13.5742208
28,velletri,roma,non mibact,omr,,sistema museale urbano di velletri,,,museo diocesano velletri,corso della repubblica 347,velletri,palazzo vescovile,49.0,69628838,69628838,museomuseodiocesanovelletri.com,www.museodiocesanovelletri.it,41.682846999999995,12.775827
29,velletri,roma,non mibact,omr,,sistema museale urbano di velletri,proust,,museo civico archeologico oreste nardini,via g.mameli 6,velletri,palazzo comunale,49.0,696158268,696158239,museo.civicocomune.velletri.rm.it,www.velletrimusei.it,41.686284,12.7770344
30,segni,roma,non mibact,omr,sistema dei monti lepini,,proust,,museo archeologico comunale di segni,via lauri 1,,antico palazzo della comunit,37.0,697.260.072,697.260.072,infomuseosegni.it,www.museosegni.it,41.692865000000005,13.023669900000002
31,nemi,roma,mibact,,,,,,museo delle navi romane di nemi,via diana 15/19,nemi lago,,40.0,06 9398040,06 9398040,sba laz.nemi.museonaviromanebeniculturali.it,www.archeolz.arti.beniculturali.it,41.720303,12.683235
32,ariccia,roma,non mibact,omr,,,,,museo del barocco di palazzo chigi di ariccia,piazza di corte 14,,palazzo chigi,40.0,69330053,69330988,infopalazzochigiariccia.it,www.palazzochigiariccia.it,41.720918,12.6716841
33,alatri,frosinone,non mibact,omr,,,proust,,museo civico,corso cavour 3,,allinterno del centro storico di alatri,3011.0,0775459009 07754481 comune,775459009,comune alatrilibero.it culturaeturismocomune.alatri.fr.it,,41.726062,13.343724900000002
34,anagni,frosinone,non mibact,,,,,,museo del tesoro della cattedrale e lapidario,via leone xiii 5,,c/o cattedrale di anagni,3012.0,775728374,7755728374,anagnicattedralelibero.it,www.anagnicattedrale.org,41.742697,13.1622
35,anagni,frosinone,non mibact,,,,,,mostra permanente tommaso gismondi,piazza innocenzo iii 25,,,3012.0,775727856,775727856,,,41.742993,13.161588
36,fiumicino,roma,mibact,,,,,,necropoli di porto isola sacra,via di monte spinoncia 52,,,54.0,66583888,,,,41.767072,12.265684
37,vico nel lazio,frosinone,non mibact,,,,,,museo alla pace i nuovi primitivi,via guglielmo marconi 56,,c/o palazzo del governatore,3010.0,77541662,775418932,luciano.dabbruzzoalice.it,,41.777896000000005,13.342014
38,roma,roma,non mibact,omr,,,,,museo delle carrozze depoca,via andrea millevoi 693,roma cecchignola est,,178.0,651958112,651958112,infolecarrozzadepoca.it,,41.817136,12.519055999999999
39,roma,roma,mibact,,,,,,museo nazionale delle arti e tradizioni popolari,piazza marconi 8/10,,,144.0,65926148,65911848,ic dbeniculturali.it,www.idea.mat.beniculturali.it,41.832485999999996,12.4718655
40,roma,roma,mibact,,,,,,museo nazionale preistorico ed etnografico l. pigorini,piazza guglielmo marconi 14,eur,palazzo delle scienze,144.0,6549521,654952310,s mnpebeniculturali.it,www.pigorini.beniculturali.it,41.832485999999996,12.4718655
41,zagarolo,roma,non mibact,omr,sistema museale dei castelli romani e prenestini museumgrandtour,,,,museo demoetnoantropologico del giocattolo,piazza indipendenza,zagarolo,palazzo ruspigliosi,39.0,695769405,69524572,infomuseogiocattolo.it,www.museogiocattolo.it,41.838194,12.8308964
42,rocca di cave,roma,non mibact,omr,,,resina,,museo geo paleontologico ardito desio,piazza della torre 11,rocca,,30.0,06 9584098,06 9584023,hipparcos.cdstiscali.it,www.museiresina.it/museodesio.htlm,41.847297,12.945667
43,roma,roma,non mibact,omr,,sistema musei in comune,,,museo della repubblica romana e della memoria garibaldina,largo di porta s.pancrazio 9,porta san pancrazio,c/o complesso monumentale di porta s.pancrazio,153.0,65894575,658157153,mara.minasicomune.roma.it,www.museodellarepubblicaromana.it,41.888509,12.4617041
44,roma,roma,mibact,,,,,,crypta balbi,via delle botteghe oscure 31,,,186.0,66977671,669776728,laura.vendittellibeniculturali.it,www.archeoroma.beniculturali.it,41.894932,12.4783617
45,roma,roma,non mibact,,,,,,galleria colonna srl,piazza santi apostoli 66,,,187.0,66784350,66794638,infogalleriacolonna.it,www.galleriacolonna.it,41.897162,12.483499400000001
46,roma,roma,non mibact,,,,,,museo storico nazionale dellarte sanitaria,lungotevere in sassia 3,,,193.0,66893051,66833485,segreteria.asasgmail.com,,41.900853000000005,12.4630335
47,roma,roma,non mibact,,,,,,museo francescano dellistituto storico dei cappuccini,circonvallazione occidentale 6850,gra km 65.50,collegio s. lorenzo da brindisi,163.0,6660521,666052532,yteklemayahoo.com,www.istcap.org,41.914376000000004,12.384941099999999
48,vallepietra,roma,non mibact,,,,,,museo civico degli ex voto,piazza italia 2,,municipio,20.0,774899031,774899150,infocomunevallepietra.it,,41.926836,13.230927
49,tivoli,roma,mibact,,,,,,villa deste,piazza trento 5,,,19.0,774312070,0774 318080,villadestetivolitiscalinet.it,www.villadestetivoli.info,41.962238,12.796944900000002
50,cervara di roma,roma,non mibact,omr,,,,,museo della montagna,via verdi snc,,,20.0,774828275,774828762,cervaradiroma.comunevirgilio.it,,41.988214,13.067661900000001
51,san polo dei cavalieri,roma,non mibact,,,,,,castello baronale orsini cesi di san polo dei cavalieri,via santa lucia 4,,,10.0,774426133,774426249,amministrazioneenergydi.it,,42.009771,12.83867
52,santa marinella,roma,non mibact,omr,,,proust,,museo civico archeologico,via del castello di santa severa,santa severa,castello di santa severa,50.0,766570077,766570077,muspyrgitiscali.it,,42.017093,11.958993699999999
53,palombara sabina,roma,non mibact,,,,,,abbazia di san giovanni in argentella,via san giovanni in argentella 96,,,18.0,77466093,77466093,alessandraziellilibero.it,,42.055555,12.752177
54,bracciano,roma,non mibact,,,,,,castello odescalchi,piazza mazzini 14,,,62.0,699802379,699802380,castelloodescalchi.it,,42.104242,12.17703
55,capena,roma,non mibact,,,,,,museo civico torre dellorologio,piazza san luca 1,capena,via montebello,60.0,690376025,69074301,servizisocialicomunedicapena.it,www.comunedicapena.it,42.140007000000004,12.5400069
56,fara in sabina,rieti,non mibact,omr,,,,,museo civico archeologico di fara sabina,piazza duomo 3,fara sabina,,2032.0,7652779211,765277321,marialuisaagnenivirgilio.it,www.sabinideltevere.it,42.209457,12.728759
57,toffia,rieti,non mibact,,,,,,museo maria petrucci,via della rocca 21,,,2039.0,765326248,765326248,petruccimariagmail.com,www.mariapetrucci.it,42.212187,12.752794999999999
58,castelnuovo di farfa,rieti,non mibact,omr,,,musart,,museo dellolio della sabina,via perelli 1,,palazzo perelli,2031.0,76536370,76536370,museoliosabinalibero.it,,42.231967,12.742877
59,barbarano romano,viterbo,non mibact,,,,resina,,museo etrusco,piazza santangelo 2,,,1010.0,761414531,,,,42.251118,12.0663609
60,civita castellana,viterbo,non mibact,,,,,,comune di civita castellana museo della ceramica casimiro marcantoni,via a. gramsci 3,,ex chiesa di san giorgio,1033.0,7615901,761517253,comune.civitacastellanalegalmail.it,www.comune.civitacastellana.vt.it,42.288378,12.4153931
61,borgo velino,rieti,non mibact,,,,musart,,museo civico,piazza umberto i 33,borgo velino,,2010.0,746578896,746578525,comune.borgovelinolibero.it,,42.405916,13.058259
62,viterbo,viterbo,non mibact,omr,,sistema museale urbano di viterbo,,,nuseo del colle del duomo,piazza s. lorenzo 8a,,,1100.0,3477010187,,museocolledelduomolibero.it,www.museocolledelduomo.it,42.415647,12.101644
63,antrodoco,rieti,non mibact,,,,,,museo storico militare alpini forze armate alpino cav. emanuele galgani,via del ponte 8,antrodoco,palazzo blasetti,2013.0,0746 578185,0746 578623,culturaesportcomunediantrodoco.it,www.comunediantrodoco.it,42.417383,13.080082
64,canino,viterbo,mibact,,,,,,museo archeologico di vulci,,localit vulci,castello dellabbadia,1011.0,0761 437787,0761 437787,sba embeniculturali.it,http//etruriameridionale.beniculturali.it,42.440952,11.6840589
65,montefiascone,viterbo,non mibact,omr,sistema museale del lago di bolsena,,musart,,museo dellarchitettura di antonio da sangallo il giovane,piazza della rocca,,rocca dei papi,1027.0,0761 832060,0761 820884,museosangallocomune.montefiascone.vt.it,,42.536852,12.027624900000001
66,bagnoregio,viterbo,non mibact,,,,,,associazione storico culturale piero taruffi,via fidanza 55,bagnoregio,,1022.0,761780811,761780811,museotaruffilibero.it,www.museotaruffi.it,42.626948999999996,12.0974162
67,ventotene,latina,non mibact,omr,,,resina,,museo della migrazione,,loc. il semaforo,,4020.0,0771 85275 / 340 5412447,,museoimigrazioneventotenegmail.com,,40.798309700000004,13.432063699999999
68,ponza,latina,non mibact,,,,,,museo comunale di ponza,via roma,ponza,,4027.0,77180108,771809718,,www.comune.ponza.lt.it,40.8948998,12.9663529
69,gaeta,latina,non mibact,,,,,,museo de centro storico culturale gaeta,via annunziata 7,gaeta,complesso ss. annunziata,4024.0,771464293,,centrostoriculttiscali.it,,41.2126028,13.580416399999999
70,san felice circeo,latina,non mibact,,,,,,mostra permanente homo sapiens e habitat,piazza lanzuisi 1,san felice circeo,c/o torre dei templari,4017.0,3477896233,,zeirobertolibero.it,www.fondazionemarcellozei.com,41.232826200000005,13.0884991
71,terracina,latina,non mibact,omr,,,proust,,museo civico archeologico pio capponi,piazza del municipio snc,,palazzo comunale torre frumentaria,4019.0,0773707313 07737072,773707278,direttoremuseocomune.terracina.lt.it,,41.2914632,13.248725899999998
72,sabaudia,latina,non mibact,omr,,,,,museo del mare e della costa m. zei,piazza verbania 1,sabaudia,,4016.0,773511340,773514258,museomarecostacomune.sabaudia.latina.it,www.comune.sabaudia.latina.it,41.2983266,13.0297036
73,sabaudia,latina,non mibact,,,,,,museo civico emilio greco,piazza del comune,sabaudia,palazzo comunale,4016.0,773514258,773518923,ufficioculturacomune.sabaudia.latina.it,www.comune.sabaudia.latina.it,41.300312100000006,13.025636500000001
74,sonnino,latina,non mibact,omr,,,demos,,museo delle terre di confine,via giacomo antonelli 1,sonnino,,4010.0,329 8880509,773908600,museoterrediconfinegmail.com,,41.414700200000006,13.2402083
75,latina,latina,non mibact,omr,,,proust,,antiquarium comunale procojo,strada foce verde 53,borgo sabotino,,4100.0,773655060,773652640,museicomune.latina.it,,41.429073200000005,12.8210546
76,anzio,roma,non mibact,omr,,,proust,,museo civico archeologico,via di villa adele 2,anzio,villa adele,42.0,698499479,698499408,museoarcheologicocomune.anzio.roma.it,www.regione.lazio.it/musei/anzio/index.php,41.450351700000006,12.6302093
77,nettuno,roma,non mibact,omr,,,,,antiquarium comunale,via antonio gramsci 5,,forte sangallo,48.0,06 98889553,,direttore.antiquariumcomune.nettuno.roma.it,http//beni culturali.provincia.roma.it/content/museo civico antiquarium comunale,41.4566239,12.656026400000002
78,latina,latina,non mibact,omr,,,musart,,galleria civica darte moderna e contemporanea,via umberto i 39,,palazzo della cultura,4100.0,773652624,773652640,museicomune.latina.it,,41.4632735,12.9056386
79,latina,latina,non mibact,,,,musart,,museo m. valeriani della numismatica della medaglia della grafica incisa e della fotografia,via umberto i 39/41,,palazzo della cultura,4100.0,773652633,773652640,museicomune.latina.it,,41.4632735,12.9056386
80,vallecorsa,frosinone,non mibact,,,,demos,,museo demoetnoantropologico,via g. marconi 1,,chiesa santantonio,3020.0,775679017,775679867,vallecorsalibero.it,,41.4656446,13.336519199999998
81,latina,latina,non mibact,,,,,,museo della terra pontina,piazza del quadrato 24,,c/o palazzo ex onc.,4100.0,773400088,773400088,museo.terrapontinahotmail.it,,41.466362700000005,12.8986859
82,pastena,frosinone,non mibact,,,,demos,,museo della civilta contadina e dellulivo,via porta napoli snc,pastena,,3020.0,776546006,776546261,museomuseodipastena.it,www.museodipastena.it,41.46718320000001,13.4909669
83,priverno,latina,non mibact,omr,sistema dei monti lepini,sistema museale urbano di priverno,proust,,museo civico archeologico,piazza giovanni xxiii,priverno,palazzo valeriani guarini,4015.0,773905065,773905065,musarchprivernolibero.it,,41.47356129999999,13.181761199999999
84,cassino,frosinone,non mibact,,,,,,museo multimediale historiale di cassino,via san marco 23,cassino,,3043.0,776313852,77622996,infomuseohistoriale.org,www.museohistoriale.org,41.4838568,13.828682999999998
85,cervaro,frosinone,non mibact,,,,,,museo dellarte orafa,piazza colle 1,,,3044.0,776367001,776366354,servizisocialicomune.cervaro.sr.it,www.comune.cervaro.fr.it,41.4893784,13.882477100000001
86,cassino,frosinone,non mibact,omr,,,,,museo dellabbazia di montecassino,,via montecassino,abbazia di montecassino,3043.0,0776 311529,,infoabbaziamontecassino.org,www.abbaziamontecassino.org,41.4907889,13.833377599999999
87,sezze,latina,non mibact,omr,,,musart,,museo diocesano,,palazzo dei canonici,,4018.0,0773 886358 0773 6986105,,archiviocapitolarelibero.it,,41.4994158,13.0617578
88,castro dei volsci,frosinone,non mibact,,,,,,museo civico archeologico,via antonino carnevale 24,madonna del piano,edificio unico ed autonomo,3020.0,775686829,775610128,museo archeolibero.it,,41.5155229,13.402265599999998
89,sermoneta,latina,non mibact,,,,,,museo della storia della ceramica,corso garibaldi,,palazzo caetani,4013.0,77330151,77330010,sermonetaculturavirgilio.it,,41.548769899999996,12.9868556
90,colle san magno,frosinone,non mibact,omr,,,,,museo vivo della memoria,via roma 66,,,3030.0,0776 560051,,museovivodellamemoriagmail.com,www.museovivodellamemoria.it/,41.5513756,13.6955016
91,norma,latina,non mibact,,,,,,museo del cioccolato antica norba,via capo dellacqua 17,,,4010.0,773354548,773353997,infomuseodelcioccolato.com,www.museodelcioccolato.com,41.595353100000004,12.975852699999999
92,ripi,frosinone,non mibact,omr,,,resina,,museo dellenergia,via merigo alto,ex mattatoio e lavatoio sec. xix,,3027.0,0775 285160,,museoenergia.direttoregmail.com,,41.6080872,13.419391899999999
93,arpino,frosinone,non mibact,,,,,,museo della liuteria embergher cerrone,corso tulliano 49,arpino,palazzo felluca merolle,3033.0,776849241,776848535,museiciviciarpinolibero.it,www.arpinoturismo.it,41.6475549,13.611157
94,arpino,frosinone,non mibact,omr,,,,,museo della fondazione umberto mastroianni,,piazza caduti dellaria,castello ladislao,3033.0,0776 848105,,infofondazionemastroianni,www.fondazionemastroianni.it,41.649254299999996,13.6246954
95,atina,frosinone,non mibact,omr,,,musart,,acadmie vitti,via sode 180,loc. ponte melfa,casa dove vissero maria e giacinta caira e cesare vitti,3042.0,0775 211417 398 8168855,,cesare.erariolibero.it,www.ciceroneweb.it,41.6571779,13.7389366
96,veroli,frosinone,non mibact,omr,,,proust,,museo dellabbazia di casamari,via mria 25,casamari,abbazia di casamari,3029.0,0775 282371,0775 281020,infoabbaziadicasamari.it mariaromanapicutialice.it,www.casamari.it,41.6677667,13.4365449
97,lanuvio,roma,non mibact,omr,sistema museale dei castelli romani e prenestini museumgrandtour,,proust,,museo civico lanuvino,piazza della maddalena 16,lanuvio,piano terra del palazzo comunale,40.0,693789237,693789229,culturalanuvio.comnet.roma.it,,41.6759901,12.69766
98,velletri,roma,non mibact,omr,,sistema museale urbano di velletri,proust,,museo civico di geopaleontologia e preistoria dei colli albani,via g. mameli 4,velletri,palazzo comunale,49.0,696158268,696158239,museo.civicocomune.velletri.rm.it,www.velletrimusei.it,41.6861964,12.7770369
99,veroli,frosinone,non mibact,,,,,,museo delle erbe dei monti ernici,piazza mazzoli 10,,,3029.0,775237081,775230914,segreteria.verolilibero.it,www.comune.veroli.fr.it,41.6907002,13.4178082
100,veroli,frosinone,non mibact,,,,,,museo del duomo,piazza duomo 3,,,3029.0,775237020,775237020,giup64infinito.it,,41.6909908,13.4176301
101,san donato val di comino,frosinone,non mibact,,,,,,museo geologico territoriale,via roma 3,,,3046.0,776508701,776508918,infocomune.sandonatovaldicomino.fr.it,,41.706826899999996,13.813978
102,colleferro,roma,non mibact,omr,,,proust,,museo archeologico del territorio toleriense,via carpinetana sud 144,colleferro,,34.0,69781169,69781169,museocomune.colleferro.rm.it,,41.7219513,13.0115765
103,albano laziale,roma,non mibact,omr,sistema museale dei castelli romani e prenestini museumgrandtour,,,,museo civico archeologico di villa ferraioli,viale risorgimento 3,albano,villa ferraioli,41.0,69323490,69325759,museocomune.albanolaziale.rm.it,,41.7268192,12.661449800000002
104,artena,roma,non mibact,omr,,,,,museo del collegio francescano,via del convento 83,,convento di santa maria del ges,31.0,06 951911,06 9519408,infoconvento francescano artena.it,http//beni culturali.provincia.roma.it/content/museo del collegio francescano santa maria del gesc3b9,41.739098600000005,12.907743400000001
105,artena,roma,non mibact,,,,,,museo civico archeologico r.lamrechts,via fleming 20,,granaio borghese,31.0,0695199051 95191074,69515119,servizio3comune.artena.rm.it,www.comune.artena.rm.it,41.742762799999994,12.9113366
106,roma,roma,mibact,,,,,,castello di giulio ii,piazza della rocca,borgo ostia antica,,119.0,,,,,41.7596893,12.3014406
107,rocca di papa,roma,non mibact,omr,sistema museale dei castelli romani e prenestini museumgrandtour,,resina,,museo geofisico,via dellosservatorio 42,rocca di papa,osservatorio geodinamico,40.0,69496230,69496230,museoroccadipapaingv.it,,41.759879299999994,12.7100771
108,roma,roma,mibact,,,,,,scavi di ostia antica e museo,viale dei romagnoli 717,ostia antica,,119.0,06 56358099,06 5651500,ssba rm.osanbeniculturali.it,,41.7605709,12.3029256
109,fiumicino,roma,mibact,,,,,,basilica di s. ippolito e annesso antiquarium,via redipuglia,angolo col moschin isola sacra fiumicino,,54.0,656358043,65651500,,,41.76978270000001,12.268536300000001
110,fiumicino,roma,mibact,,,,,,area archeologica del porto di traiano,via portuense,,,54.0,66529192,,,,41.7742693,12.2517063
111,valmontone,roma,non mibact,omr,sistema museale dei castelli romani e prenestini museumgrandtour,,,,museo di palazzo doria pamphilj,piazza umberto pilozzi 9,,palazzo doria pamphilj,38.0,695990229,,culturacomune.valmontone.rm.gov.it,,41.776190899999996,12.9184242
112,roma,roma,mibact,,,,,,museo nazionale romano terme di diocleziano,vie e. de nicola,stazione termini,,185.0,6477881,64814190,rosanna.friggeribeniculturali.it,www.archeoroma.beniculturali.it,41.7762721,12.612344300000002
113,palestrina,roma,non mibact,omr,sistema museale dei castelli romani e prenestini museumgrandtour,,,,museo diocesano prenestino di arte sacra,via roma 23,,,36.0,69534428,69538116,museodiocesanodiocesipalestrina.it,,41.7894554,12.8802041
114,frascati,roma,non mibact,omr,,,,,museo etiopico g. massaia,via cardinale massaia 26,,convento dei cappuccini,44.0,694010439,,proriviin.it capfrasosmcap.org,,41.804533500000005,12.6838738
115,frascati,roma,non mibact,omr,sistema museale dei castelli romani e prenestini museumgrandtour,,,,museo tuscolano scuderie aldobrandini,piazza guglielmo marconi 6,,,44.0,69417195,69417195,eventicomune.frascati.rm.it,www.scuderiealdobrandini.org,41.8060816,12.680226
116,monte porzio catone,roma,non mibact,,,,,,inaf osservatorio astronomico di roma,via frascati 33,monte porzio catone,c/o osservatorio astronomico,40.0,694286427,69449446,divaoa roma.inaf.it,www.webdiva2.oa roma.inaf.it,41.8132765,12.7067238
117,monte porzio catone,roma,non mibact,omr,sistema museale dei castelli romani e prenestini museumgrandtour,sistema museale urbano di monte porzio catone,proust,,museo della citta,via simone pomardi 1,monte porzio catone,c/o chiesa,40.0,694341031,69447471,museicomune.monteporziocatone.rm.it,www.comune.monteporziocatone.rm.it,41.81555170000001,12.713924699999998
118,citt di cave,roma,non mibact,omr,sistema pre.gio,,,,museo civico citt di cave,via cavour 27,,ex ospedale mattei ex convento degli agostiniani,33.0,347 5438042,,museocivicocavegmail.com,www.comune.cave.rm.it/joomla/index.phpoptioncom contentviewarticleid106itemid207langit,41.8175809,12.9296593
119,roma,roma,non mibact,,,,,,societa di studi fiumani,via antonio cippico 10,,,143.0,65923485,65915755,infofiume rijeka.it,www.fiume rijeka.it,41.8209437,12.4816416
120,giuliano di roma,roma,non mibact,omr,,,resina,,museo del vulcanismo ernico muve,via san tommaso,,palazzo brettagna,3020.0,,,,,41.8229064,12.5083767
121,san cesareo,roma,non mibact,omr,sistema museale dei castelli romani e prenestini museumgrandtour,,,,ferrovia museo della stazione di colonna,via casilina 17,san cesareo,ex stazione di colonna,30.0,69439290,694730008,stazionecolonnaalice.it,www.ferroviamuseo colonna.it,41.8240697,12.8108383
122,roma,roma,mibact,,,,,,villa dei quintili,via appia nuova 1092,statuario,area archeologica estesa tra via appia nuova e via appia antica,178.0,67129121,671291230,ssba rm.villadeiquintilibeniculturali.it,htpp//www.archeoroma.beniculturali.it,41.830827899999996,12.5555566
123,roma,roma,non mibact,omr,,sistema musei in comune,,,museo della civilt romana,piazza giovanni agnelli 10,,palazzo storico,144.0,65926041,65926135,info.museociviltaromanacomune.roma.it,www.museociviltaromana.org,41.8314198,12.477854800000001
124,roma,roma,mibact,,,,,,museo nazionale dellalto medioevo,viale lincoln 3,,,144.0,654228199,06 54228130,ssba rm.ostia.medioevobeniculturali.it,,41.8326346,12.472430000000001
125,palestrina,roma,non mibact,,,,,,fondazione giovanni pierluigi da palestrina,vicolo pierluigi 3,,,36.0,69538083,69538083,fond.palestrinatiscalinet.it,,41.83940870000001,12.889351
126,genazzano,roma,non mibact,omr,sistema museale dei castelli romani e prenestini,,musart,,centro internazionale darte contemporanea ciac,piazza san nicola 4,,castello colonna,30.0,,,infociacmuseum.com,www.ciacmuseum.com,41.8458692,12.945314300000001
127,castel san pietro,roma,non mibact,omr,sistema pre.gio,,,,museo civico,piazza vittorio veneto,,palazzo mocci,30.0,06 9538481,06 9538481,ilbetilotiscali.it,http//beni culturali.provincia.roma.it/content/museo civico di castel san pietro,41.8464775,12.8943829
128,palestrina,roma,non mibact,,,,,,museo della resistenza e degli undici martiri,via vigesimo,vigesimo via pedemontana,,36.0,069573176 0695302272 271,,infocomune.palestrina.rm.it,www.comune.palestrina.rm.it,41.8465578,12.8615344
129,roma,roma,mibact,,,,,,tomba di cecilia metella,via appia antica 161,,tomba di cecilia metella nel castrum caetani,179.0,67844271,678442730,,htpp//www.archeoroma.beniculturali.it,41.85211279999999,12.5209185
130,roma,roma,non mibact,,,,,,museo delle origini,piazzale a. moro 5,roma,facolta di lettere,185.0,649913924,649913653,musorirmcisadu.let.uniroma1.it,www.musei.uniroma1.it/museodelleorigini/index.html,41.8573198,12.5015354
131,roma,roma,non mibact,,,,,,mausoleo delle fosse ardeatine,via ardeatina nr. 174,roma,,179.0,65136742,65136742,mausoleofosseardeatineonorcaduti.difesa.it,,41.8583554,12.5089148
132,capranica prenestina,roma,non mibact,omr,sistema pre.gio,,resina,,museo civico naturalistico dei monti prenestini,piazza aristide frezza 6,,palazzo barberini,30.0,69584126,69584337,museocomunecapranica.it,www.comunecapranica.it,41.8621223,12.9521942
133,roma,roma,non mibact,omr,,sistema musei in comune,,,musei capitolini centrale montemartini,via ostiense 106,ex centrale termoelettrica giovanni montemartini,complesso industriale,154.0,65748042,65754207,info.centrale.montemartinicomune.roma.it,www.centralemontemartini.org,41.8670298,12.478986500000001
134,roma,roma,non mibact,,,sistema musei in comune,,,museo delle mura di roma,via di porta san sebastiano 18,,porta s. sebastiano,179.0,670475284,670475284,museomurazetema.it,www.museiincomune.it,41.8734634,12.501408099999999
135,roma,roma,mibact,,,,,,museo della via ostiense,via r. persichetti 3,porta san paolo,,154.0,,,,,41.8767871,12.480911099999998
136,roma,roma,mibact,,,,,,terme di caracalla,via delle terme di caracalla 52,,,153.0,657174520,657174530,ssba rm.termecaracallabeniculturali.it,www.archeoroma.it,41.8800969,12.496205900000001
137,roma,roma,non mibact,,,,,,museo storico didattico di giochi e giocattoli del 900 la memoria giocosa,via vincenzo coranelli 26/a,quartiere pigneto,,176.0,621700782,621700782,memoriagiocosalibero.it,,41.8851401,12.5336038
138,roma,roma,mibact,,,,,,foro romano e palatino,largo romolo e remo,roma,,185.0,6699841,66787689,ssba rmbeniculturali.it,www.archeoroma.beniculturali.it,41.885739799999996,12.4848582
139,roma,roma,non mibact,,,,,,case romane del celio,clivo di scauro,,sottostanti la basilica dei ss. giovanni e paolo,184.0,06 70454544,06 77201975,infocaseromane.it,www.caseromane.it,41.8864735,12.490630099999999
140,roma,roma,non mibact,,,,,,mausoleo ossario garibaldino,via garibaldi 29/e,,,153.0,667103407,667103833,francesca.bertozzicomune.roma.it,,41.8881886,12.4656043
141,roma,roma,non mibact,,,,,,museo storico della liberazione,via tasso 145,,,185.0,67003866,677203514,infomuseoliberazione.it,,41.8887375,12.5064312
142,roma,roma,non mibact,,,,,,museo storico della fanteria,piazza s. croce in gerusalemme 9,,,185.0,67027971,67027971,urppersomil.difesa.it museo fanteriaesercito.difesa.it,,41.88891339999999,12.5141899
143,roma,roma,mibact,,,,,,museo nazionale degli strumenti musicali,piazza santa croce in gerusalemme 9/a,,,185.0,67014796,67029862,,,41.88891339999999,12.5141899
144,roma,roma,non mibact,omr,,,,,museo di villa vecchia in villa doria pamphilj,via aurelia antica 183,,villa doria pamphilj,183.0,06 39376616,06 39380994,,www.060608.it/it/cultura e svago/beni culturali/musei/museo di villa vecchia villa doria pamphilj.html,41.8890951,12.4450986
145,roma,roma,non mibact,,,,,,museo storico granatieri di sardegna,piazza santa croce in gerusalemme 7,,palazzina,185.0,67028287,,museostoricogranatierigmail.com,,41.889095899999994,12.5155061
146,roma,roma,non mibact,omr,,sistema musei in comune,demos,,museo di roma in trastevere,piazza santegidio 1/b,convento carmelitano di santegidio,,153.0,65899359,65884165,museodiroma.trasteverecomune.roma.it,,41.889860600000006,12.468701800000002
147,roma,roma,mibact,,,,,,anfiteatro flavio colosseo,piazza del colosseo,,,184.0,677400920,677400930,ssba rm.colosseobeniculturali.it,http//archeoroma.beniculturali.it,41.8899272,12.4941978
148,roma,roma,non mibact,,,,,,museo di idraulica,via eudossiana 20,roma,facolt di ingeneria universit di roma la sapienza,184.0,644585084,644585094,marco.marchettiuniroma1.it,www.musei.uniroma1.it/informamuseonew.aspid20,41.8927234,12.4926794
149,roma,roma,mibact,,,,,,galleria nazionale darte antica in palazzo corsini,via della lungara 10,,palazzo corsini,165.0,668802323,668133192,sspsae rm.galleriacorsinibeniculturali.it,www.galleriacorsinibeniculturali.it,41.89324179999999,12.4669323
150,roma,roma,non mibact,,,,,,villa farnesina,via della lungara 230,,,165.0,668027268,668027397,farnesinalincei.it lapentalincei.it,www.villafarnesina.it,41.8932984,12.467066099999998
151,roma,roma,non mibact,,,,,,museo tipologico internazionale del presepio angelo stefanucci,via tor de conti 31/a,,c/o chiesa ss.quirico e giulitta,184.0,66796146,669789602,informazionepresepio.it,www.presepio.it,41.8937488,12.4878893
152,roma,roma,non mibact,,,,,,museo centrale del risorgimento,via s. pietro in carcere,,complesso del vittoriano,186.0,66793598,66782572,ist.risorgimentotiscali.it,www.risorgimento.it,41.89375220000001,12.4842507
153,roma,roma,mibact,,,,,x,galleria spada,piazza capo di ferro 13,,palazzo spada,186.0,66861158,66861158,,,41.8943769,12.4718126
154,roma,roma,non mibact,omr,,sistema musei in comune,,,museo dei fori imperiali nei mercati di traiano,via iv novembre 94,,palazzo storico e complesso archeologico,187.0,669941020,669780532,infomercatiditraiano.it,www.mercatiditraiano.it,41.8961387,12.4856164
155,roma,roma,mibact,,,,,,museo nazionale del palazzo di venezia,via del plebiscito 118,rione pigna,palazzo,186.0,669994284,669994394,sspsae rm.mpvbeniculturali.it,www.museopalazzovenezia.beniculturali.it,41.8964079,12.4810964
156,roma,roma,non mibact,omr,,sistema musei in comune,,,museo di scultura antica giovanni barracco,corso vittorio emanuele ii 166a,farnesina ai bauellari,palazzo storico,186.0,668806848,668806848,info.museobarraccocomune.roma.it,www.museobarracco.it,41.896804100000004,12.4727295
157,roma,roma,non mibact,,,,,,galleria doria pamphilj,via del corso 305,rione monti,palazzo doria pamphilj,186.0,66797323,66780939,arti.rmdoriapamphilj.it,www.dopart.it,41.8974917,12.4814574
158,roma,roma,non mibact,omr,,sistema musei in comune,,,museo di roma,piazza s.pantaleo 10,palazzo braschi,palazzo braschi,187.0,667108312,667108303,museodiromacomune.roma.it,www.museodiroma.it,41.8975547,12.4727273
159,roma,roma,non mibact,omr,,,,,museo delle cere,piazza santi apostoli 68a,,,187.0,66796482,66796482,museodellecere.romalice.it,www.museodellecereroma.com,41.8976424,12.4832809
160,roma,roma,non mibact,omr,,,,,museo del teatro argentina,piazza argentina 52,largo di torre argentina,,186.0,667106017,667103833,tania.renzicomune.roma.it,,41.8976915,12.4763656
161,roma,roma,non mibact,,,,,,casino dellaurora,via xxiv maggio 43,roma,palazzo pallavicini,187.0,683467000,683467070,aurorapallavicinisaita.it,www.casinoaurorapallavicini.it,41.8982771,12.488022
162,roma,roma,non mibact,,,,,,museo dellordine dei chierici regolari ministri degli infermi camilliani,piazza della maddalena 53,,,186.0,6899281,689928133,agmicamilliani.org e.martineztiscali.it,www.camilliani.org,41.9001131,12.476685400000001
163,roma,roma,non mibact,,,,,,museo donazione umberto mastroianni,piazza san salvatore in lauro 15,,musei di san salvatore in lauro,186.0,66865493,66892109,redazioneilcigno.org,,41.9008464,12.4693138
164,roma,roma,mibact,,,,,,palazzo altemps,piazza di santapollinare 46,,,186.0,6684851,66897091,ssba rm.palazzoaltempsbeniculturali.it,http//archeoroma.beniculturali.it,41.9012314,12.472857699999999
165,roma,roma,non mibact,,,,,,complesso monumentale s. spirito in saxia,borgo s. spirito 3,,,193.0,668352449,668352470,lancisianaasl rme.it,www.regione.lazio.it/biblioteche/lancisianaroma/,41.901442200000005,12.4614773
166,roma,roma,mibact,,,,,,istituto nazionale per la grafica,via della stamperia 6,,fontana di trevi,187.0,669980238,669921474,in g.ufficiostampabeniculturali.it,www.grafica.beniculturali.it,41.90153970000001,12.4834857
167,roma,roma,non mibact,omr,,sistema musei in comune,,,museo napoleonico,piazza di ponte umberto i 1,,palazzo primoli,186.0,06 68806286,,napoleonicocomune.roma.it,www.museonapoleonico.it,41.9016682,12.4721688
168,roma,roma,mibact,,,,,,museo nazionale romano palazzo massimo alle terme,largo di villa peretti 1,,,185.0,06 48020,06 4815563,,http//archeoroma.beniculturali.it/musei/museo nazionale romano palazzo massimo,41.9017823,12.498107800000001
169,roma,roma,mibact,,,,,x,museo mario praz,via zanardelli 1,,,186.0,06 6861089,06 6861089,museoprazmuseopraz.191.it,www.museopraz.beniculturali.it,41.901886100000006,12.4718246
170,roma,roma,non mibact,,,,,,museo storico della didattica mauro laeng,via milazzo 11 b,roma,facolta scienze della formazione universita roma 3,185.0,657339117,,mus.diduniroma3.it,www.host.uniroma3.it/laboratori/museodidattica,41.9021453,12.5043954
171,roma,roma,mibact,,,,,,museo nazionale di castel santangelo,lungotevere castello,,,193.0,66819111,668191196,sspsae rm.santangelobeniculturali.it,www.castelsantangelo.beniculturali.it,41.9024896,12.4659238
172,roma,roma,mibact,,,,,,galleria nazionale darte antica in palazzo barberini,via quattro fontane 13,,palazzo barberini,184.0,64824184,64880560,spsae rm.gnaabeniculturali.it,http//galleriabarberini.it,41.9025415,12.4897285
173,roma,roma,non mibact,,,,,,museo erbario dipartimento di biologia ambientale,piazzale aldo moro 5,roma,c/o universit di roma sapienza,185.0,649912410,649912409,erbariouniroma1.it,www.musei.uniroma1.it/erbario/index.html,41.9033594,12.515426
174,roma,roma,non mibact,,,,,,museo di paleontologia,piazzale aldo moro 5,citt universitaria,c/o dipartimento di scienze della terra,185.0,649914315,06 4454729,museo.paleouniroma1.it,www.dst.uniroma1.it/musei/museo paleontologia/index.htm,41.9033594,12.515426
175,roma,roma,non mibact,,,,,,museo di fisica,piazzale aldo moro 5,universit di roma la sapienza,universita degli studi la sapienza dipartimento di fisica,185.0,649914334,64957697,fabio.sebastianiroma1.infn.it,www.phys.uniroma1.it/dipweb/museo/home.htm,41.9033594,12.515426
176,roma,roma,non mibact,,,,,,museo di zoologia delluniversita la sapienza,piazzale aldo moro 5,universit di roma la sapienza,citta universitaria,185.0,649914742,64958259,augusto.vignatagliantiuniroma1.it,,41.9033594,12.515426
177,roma,roma,non mibact,,,,,,museo di geologia,piazzale aldo moro 5,universit di roma la sapienza,c/o dipartimento di scienze della terra,185.0,649914825,64463068,museo.geologiauniroma1.it,www.tetide.geo.uniroma1.it/musei/museo geologia/index.htm,41.9033594,12.515426
178,roma,roma,non mibact,,,,,,museo di mineralogia,piazzale aldo moro5,universit di roma la sapienza,dipartimento scienze della terra,185.0,649914887,64454729,musmin.romauniroma1.it,www.musmin.geo.uniroma1.it,41.9033594,12.515426
179,roma,roma,non mibact,,,,,,museo dellarte classica gipsoteca,piazzale aldo moro 5,,edificio ex facolta lettere universita di roma la sapienza,185.0,649913960,649913955,mariagrazia.picozziuniroma1.it,,41.9033594,12.515426
180,roma,roma,non mibact,omr,,sistema musei in comune,,,galleria darte moderna di roma capitale,via francesco crispi 24,roma,c/o ex convento carmelitane scalze sec. xviii,187.0,06 4742848,06 4742912,infogalleriaartemodernaroma.it,www.galleriaartemodernaroma.it,41.9038672,12.4858498
181,roma,roma,non mibact,omr,,,,x,casa museo giorgio de chirico,piazza di spagna 31,palazzetto dei borgononi,palazzetto dei borgognoni,187.0,66796546,66796546,museumfondazionedechirico.org,www.fondazionedechirico.org,41.9056142,12.4827002
182,roma,roma,non mibact,omr,,,,x,keats shelley house,piazza di spagna 26,,,187.0,66784235,66784167,infokeats shelley house.org,www.keats shelley house.org,41.90575379999999,12.4825272
183,roma,roma,non mibact,,,,,,museo storico dellarma dei carabinieri,piazza risorgimento n. 46,,,192.0,66896696,66896696,cgmuseodircarabinieri.it,www.carabinieri.it,41.906259399999996,12.4591306
184,roma,roma,non mibact,,,,,,museo di anatomia comparata,via alfonso borelli 50,universit di roma la sapienza,c/o universita degli studi la sapienza dipartimento di biologia e biotecnologie c. darwin sede di anatomi,161.0,649918009,64457516,luciana.solauniroma1.it,,41.906419899999996,12.515730099999999
185,roma,roma,non mibact,,,,,,museo di anatomia patologica,viale regina elena 324,roma,dipartimento di medicina sperimentale policlinico umberto i,161.0,64461484,64461484,pietro.gallouniroma1.it,www.musei.uniroma1.it/anatomiapatologica/index.html,41.9072432,12.513499900000001
186,pisoniano,roma,non mibact,omr,sistema pre.gio,,,,museo della canapa,via santa maria 27,,,20.0,0774 411316,,,www.pisoniano.rm.gov.it/servizi/musei/museo della canapa,41.9080287,12.957783300000001
187,roma,roma,mibact,,,,,x,museo boncompagni ludovisi per le arti decorative costume e moda,via boncompagni 18,,,187.0,06 42824074,06 42824074,s gnam.museoboncompagnibeniculturali.it,,41.9087464,12.4952171
188,roma,roma,non mibact,omr,,,,x,casa di goethe,via del corso 18,roma,palazzo bracci,186.0,632650412,632650449,infocasadigoethe.it,www.casadigoethe.it,41.9090106,12.4771781
189,roma,roma,non mibact,omr,,sistema musei in comune,,,museo darte contemporanea roma,via reggio emilia 54,ex convento delle carmelitane scalze a san giuseppe a capo le case,,198.0,6671070400,68554090,macrocomune.roma.it,www.museomacro.org,41.9127277,12.502442199999999
190,roma,roma,non mibact,omr,,sistema musei in comune,,,musei di villa torlonia casina delle civette,via nomentana 70,roma,villa torlonia,161.0,644250072,644250166,mariagrazia.massafracomune.roma.it,www.museivillatorlonia.it,41.9133345,12.511711
191,roma,roma,non mibact,omr,,sistema musei in comune,,,museo della scuola romana,via nomentana 70,roma,villa torlonia / casino nobile,161.0,06 44252109/45472283,06 44252109,mariaitalia.zacheocomune.roma.it,www.museivillatorlonia.it,41.9133345,12.511711
192,roma,roma,non mibact,omr,,sistema musei in comune,,,musei di villa torlonia casino nobile,via nomentana 70,roma,villa torlonia,161.0,644250072,644250166,annapaola.agaticomune.roma.it,,41.9133345,12.511711
193,roma,roma,non mibact,omr,,sistema musei in comune,,x,museo pietro canonica,viale pietro canonica 2,,la fortezzuola di villa borghese,197.0,68842279,685301384,biancamaria.santesecomune.roma.it,www.museocanonica.it,41.9142202,12.486271
194,roma,roma,non mibact,omr,,,,,museo dei bambini explora,via flaminia 80/86,roma,ex deposito atac,196.0,63613776,636086803,ptomasichmdbr.it,www.2mdbr.it,41.915469099999996,12.474891699999999
195,roma,roma,non mibact,,,,,x,istituto di studi pirandelliani,via antonio bosio 13b,roma,villino del ministero dello sviluppo economico,161.0,644291853,644291853,postastudiodiluigipirandello.it,,41.9162577,12.5141843
196,roma,roma,non mibact,omr,,,,,museo del videogioco vigamus,via sabotino 4,,,195.0,06 4547 5940,,,www.vigamus.com,41.9167809,12.4596739
197,roma,roma,mibact,,,,,,galleria nazionale darte moderna e contemporanea,via delle belle arti 131,,,196.0,63221015,63221579,s gnambeniculturali.it,www.gnam.beniculturali.it,41.9170143,12.482134
198,roma,roma,non mibact,,,,,,museo storico della guardia di finanza,piazza armellini 20,roma,caserma g. di f.,162.0,644238841,64404805,museostoricogdfgdf.it,www.gdf.it,41.9183968,12.522342800000002
199,roma,roma,non mibact,omr,,sistema musei in comune,,,museo civico di zoologia,via ulisse aldrovandi 18,,,197.0,667109270,632650186,info.museodizoologiaroma.it,www.museodizoologia.it,41.919191399999995,12.488358999999999
200,roma,roma,non mibact,,,,,,istituto storico e di cultura dellarma del genio,lungotevere della vittoria 31,,,195.0,63725446,63725446,istituto genioesercito.difesa.it,,41.923115100000004,12.4607131
201,roma,roma,non mibact,,,,,,maxxi museo nazionale delle arti del xxi secolo,via guido reni 4/a,roma,,196.0,063225178 32101838,632101839,segreteriafondazionemaxxi.it,www.fondazionemaxxi.it,41.928484600000004,12.466481300000002
202,gerano,roma,non mibact,,,,,,mostra permanente la casa delle antiche scatole di latta,via del palazzo 8,,,25.0,3487960033,,scatolemarinahotmail.com,www.casadellescatole.org,41.93316970000001,12.993706
203,gerano,roma,non mibact,,,,,,museo dellinfiorata,via del municipio 8,,,25.0,774798002,774798875,infogerano.comnet.roma.it,www.infioratadigerano.it,41.9568201,13.021326400000001
204,roma,roma,non mibact,omr,,,,x,museo venanzo crocetti,via cassia 492,roma,edificio di architettura contemporanea,189.0,633711468,633711468,museo.crocettitiscali.it,www.museocrocetti.it,41.9592351,12.454381300000001
205,tivoli,roma,non mibact,omr,,,,,museo didattico del libro antico,piazza trento 1,tivoli,villa deste,19.0,641204709,641204709,associazionefanniusgmail.com,www.mdbr.it,41.962109600000005,12.7969341
206,cerveteri,roma,mibact,,,,,,museo nazionale archeologico cerite,piazza s.maria s.n.c,,,53.0,69941354,69940001,rita.cosentinobeniculturali.it,htpp//etruriameridionale.beniculturali.it,41.9989303,12.098905699999998
207,roma,roma,mibact,,,,,,villa di livia,via della villa di livia 1,via flaminia km 1400,,188.0,633626826,,,www.archeoroma.it,42.000788799999995,12.4934285
208,roma,roma,mibact,,,,,,area archeologica di veio santuario etrusco dellapollo,via riserva campetti,localit isola farnese portonaccio,,123.0,630890116,,,,42.021080700000006,12.3888035
209,arsoli,roma,non mibact,omr,sistema medaniene,,demos,,museo delle tradizioni musicali,corso borgo san bartolomeo 63,,complesso ex granaio massimo pian terreno.,23.0,774920006,774920313,ecomuseoarsoligmail.com comune.arsoliltiscalinet.it,www.prolocodiarsoli.it/museo20tradizioni20musicali.htm,42.0409547,13.019278199999999
210,santa marinella,roma,mibact,,,,,,antiquarium di pyrgi e area archeologica,,,castello di santa severa,58.0,766570194,766570194,sba embeniculturali.it,,42.0584662,11.900578999999999
211,formello,roma,non mibact,omr,,,proust,,casolare 311 casa colonica e museo della civilta comtadina,via santi martiri 12,perazzeta formello,casa colonica n. 311,60.0,69084255,690154548,museo.casolare311gmail.com,www.casolare311.it,42.061485100000006,12.445273
212,civitavecchia,roma,mibact,,,,,,museo archeologico nazionale,largo cavour 1,centro storico,c/o ingresso area portuale,53.0,76623604,76623604,sba embeniculturali.it,www.151.12.58.164/etruria/index.phpit/138/museo archeologico nazionale di civitavecchia,42.0911188,11.7927465
213,licenza,roma,non mibact,,,,,,museo civico oraziano,piazza del palazzo 3,,,26.0,77446225,77446582,licenza.licenzatin.it,,42.094637899999995,12.908997
214,civitavecchia,roma,mibact,,,,,,terme taurine o di traiano,via delle terme taurine,localit terme taurine uscita civitavecchia nord,,53.0,076623604 076620209,76623604,prolococivitavecchiainwind.it,www.prolococivitavecchia.it,42.1099953,11.8360816
215,campagnano di roma,roma,non mibact,,,,,,museo civico archeologico di campagnano,corso vittorio emanuele ii 2,,palazzo venturi,63.0,69042924,690159308,d.moretticomunecampagnano.it,,42.138897799999995,12.381161500000001
216,trevignano romano,roma,non mibact,omr,,,,,museo civico etrusco romano,piazza vittorio emanuele iii 1,,palazzo comunale,69.0,6999120201,69999848,museocivicotrevignanoromano.it,www.trevignanoromano.it,42.1561477,12.2463261
217,allumiere,roma,non mibact,omr,,,resina,,museo civico adolfo klitsche de la grange,piazza della repubblica 29,allumiere,palazzo della reverenda camera apostolica,51.0,766967793,766967793,museoallumieretiscali.it,www.digilander.libero.it/museoallumiere,42.1565334,11.9010675
218,oriolo romano,viterbo,mibact,,,,,,palazzo altieri,piazza umberto i 1,,,1010.0,699837145,699837145,,,42.15902379999999,12.138075099999998
219,fara in sabina,rieti,non mibact,omr,,,musart,,museo del silenzio,santa maria in castello snc,fara sabina,,2032.0,765277021,765277021,infomuseodelsilenzio.it,www.museodelsilenzio.it,42.2095728,12.7295977
220,bassano romano,viterbo,mibact,,,,,,villa giustiniani odescalchi,piazza umberto i,centro storico,,1030.0,0761 636065,0761 636065,,,42.2182424,12.1925906
221,nazzano,roma,non mibact,omr,,,resina,,polo scientifico museale museo del fiume di nazzano,via mazzini 4,nazzano,centro storico,60.0,0765 332002,0765 332710,museodelfiumelibero.it,www.museodelfiume.it,42.2286013,12.597138300000001
222,monteleone sabino,rieti,non mibact,omr,,,proust,,museo civico archeologico trebula mutuesca,via lucio mummio 11,monteleone sabino,municipio,2033.0,765884014,765884340,museomonteleonesabinogmail.com,,42.2343211,12.855987599999999
223,montopoli di sabina,rieti,non mibact,omr,,,musart,,modern automata museum,via case nuove 7,granari,,2034.0,765279821,765279559,infomodernautomatamuseum.com,www.modernautomatamuseum.com,42.235031899999996,12.682615
224,sutri,viterbo,non mibact,omr,,,,,museo del patrimonium,via di portavecchia 79,sutri,ex palazzo della comunita,1015.0,761600867,761601232,bibliocomune.sutri.vt.it,www.comune.sutri.vt.it/,42.2410805,12.2245358
225,tarquinia,viterbo,non mibact,,,,,,museo diocesano di civitavecchia tarquinia,via roma 11,,,1015.0,766840843,,insolera.giovannilibero.it,,42.2526729,11.7565463
226,tarquinia,viterbo,mibact,,,,,,museo archeologico nazionale,piazza cavour 2,centro storico,,1016.0,0761 856036,,,htpp//etruriameridionale.beniculturali.it/index.phpit/132/museo archeologico nazionale tarquiniense,42.2533951,11.7551343
227,tarquinia,viterbo,non mibact,,,,,,collezione giuseppe cultrera museo della ceramica della societa tarquiniense darte e storia,via delle torri 31,,,1016.0,766858194,766858194,tarquiniensegmail.com,,42.254213299999996,11.7572653
228,civita castellana,viterbo,mibact,,,,,,museo archeologico dellagro falisco e forte sangallo,via del forte snc,,,1033.0,0761 513735,0761 513735,,,42.2880258,12.4085077
229,magliano sabina,rieti,non mibact,,,,,,museo civico archeologico,via sabina 19,magliano sabina,palazzo gori,2047.0,744910001,744910001,museo civico mslibero.it,www.soi.cnr.it/magliano/,42.36117479999999,12.4826261
230,viterbo,viterbo,non mibact,obr,,,,,biblioteca s. giuseppe,viale a. diaz 25,,istituto teologico s. pietro,1100.0,761343134,761321026,biblioteca.sangiuseppeteologicoviterbese.it,,42.41107879999999,12.1090121
231,viterbo,viterbo,non mibact,omr,,sistema museale urbano di viterbo,musart,,museo della ceramica della tuscia,via cavour 67,,,1100.0,761346136,761223674,laboratorioceramicalibero.it,www.museodellaceramicadellatuscia.com,42.4157087,12.106446
232,viterbo,viterbo,non mibact,,,sistema museale urbano di viterbo,,,museo civico,piazza francesco crispi 2,viterbo,ex convento e chiostro della chiesa di s.maria della verit,1100.0,761348276,761348276,museocivicocomune.viterbo.it,www.comuneviterbo.it link museocivico,42.417672700000004,12.1105913
233,tuscania,viterbo,mibact,,,,,,chiesa san pietro,,localit tuscania,,1017.0,,,,,42.4185731,11.870308900000001
234,tuscania,viterbo,mibact,,,,,,necropoli madonna dellolivo,,localit madonna dellolivo,c/o chiesa di madonna dellolivo,1017.0,,,sba embeniculturali.it,htpp//etruriameridionale.beniculturali.it,42.4185731,11.870308900000001
235,viterbo,viterbo,mibact,,,sistema museale urbano di viterbo,,,museo nazionale etrusco di rocca albornoz,piazza della rocca 21/b,,,1100.0,0761 325929,0761 325929,sba em.roccaalbornozbeniculturali.it,www.etruriameridionale.beniculturali.it,42.421643100000004,12.1044907
236,canino,viterbo,mibact,,,,,,tomba francois,parco archeologico di vulci,localit vulci,castello dellabbadia,1011.0,0761 437787,0761 437787,sba embeniculturali.it,http//etruriameridionale.beniculturali.it,42.424116299999994,11.6310953
237,viterbo,viterbo,non mibact,,,,,,museo erbario della tuscia utv,via s. camillo de lellis snc,,universita degli studi della tuscia ex facolt di agraria vecchio edificio,1100.0,761357490,761357028,erbariounitus.it,www.unitus.it www.sma.unitus.it,42.426571100000004,12.0896074
238,viterbo,viterbo,mibact,,,,,x,villa lante della rovere,via jacopo barozzi 71,localit bagnaia,,1031.0,,,,,42.426754100000004,12.154816499999999
239,orte,viterbo,non mibact,omr,,,,,museo civico,via pie di marmo,,ex chiesa di santantonio abate,1028.0,0761 4041,0761 493303,infocomune.orte.vt.it,www.comune.orte.vt.it/c056042/zf/index.php/servizi aggiuntivi/index/index/idtesto/27,42.460527899999995,12.3870936
240,cellere,viterbo,non mibact,omr,sistema museale del lago di bolsena,,demos,,museo del brigantaggio,via marconi 20,,ex mattatoio,1010.0,0761 451791 392 7013553,,infomuseobrigantaggiocellere.it,www.museobrigantaggiocellere.it,42.5111064,11.7732155
241,ischia di castro,viterbo,non mibact,omr,sistema museale del lago di bolsena simulabo,,,,museo civico archeologico pietro e turiddo lotti,piazza cavalieri vittorio veneto,,,1010.0,0761 425455,0761 425400,ischia museocivicolibero.it,,42.5443643,11.7559713
242,capodimonte,viterbo,non mibact,,,,,,museo della navigazione nelle acque interne,viale regina margheritasnc,capodimonte,,1010.0,761870043,761871206,comunecapodimonteitpec.it,www.comune.capodimonte.vt.it,42.5560915,11.8882363
243,leonessa,rieti,non mibact,omr,,,,,museo civico demo antropologico di leonessa,via di san francesco 85,leonessa,c/o ex convento chiostro di san francesco,2016.0,746923212,746923219,comunedileonessacomunedileonessa.it,www.museum eu.it,42.5631277,12.964419900000001
244,valentano,viterbo,non mibact,omr,sistema museale del lago di bolsena,,proust,,museo della preistoria della tuscia e della rocca farnese,piazza della vittoria 11,,rocca farnese,1018.0,761420018,761420018,museo.valentanoalice.it,www.simulabo.it,42.5685644,11.819206900000001
245,amatrice,rieti,non mibact,omr,,,musart,,museo civico di arte sacra cola filotesio di amatrice,via cola 47,amatrice,,2012.0,074683081 int 27,746825682,museocivicocomune.amatrice.it,,42.629869899999996,13.287811900000001
246,bolsena,viterbo,non mibact,omr,sistema museale del lago di bolsena,,,,museo territoriale del lago di bolsena,piazza monaldeschi,,castello,1023.0,761798630,,museocomunebolsena.it,www.regione.lazio.it/musei/museo bolsena/,42.6463309,11.9858125
247,bolsena,viterbo,mibact,,,,,,area del foro e domus privatae della citt romana di volsinii,via orvietana,localit poggio moscini,,1023.0,,,,,42.6474699,11.998059699999999
248,grotte di castro,viterbo,non mibact,omr,sistema museale del lago di bolsena,,,,museo archeologico e delle tradizioni popolari,piazza giacomo matteotti,,palazzo di jacopo barozzi da vignola sec. xvi,1025.0,0763 796983,,bibliotecagrottelibero.it,www.simulabo.it,42.6852104,11.902225900000001
249,acquapendente,viterbo,non mibact,omr,sistema museale del lago di bolsena,,musart,,museo della citta,via roma 85,,palazzo vescovile,1021.0,0763 7309205,0763 711215,museo.civ.dioccomuneacquapendente.it,www.museoacquapendente.it,42.7426527,11.868904800000001
250,acquapendente,viterbo,non mibact,omr,sistema museale del lago di bolsena,,,,museo della citta,piazzetta dellorologio,,palazzo monaldeschi,1023.0,0761 796914,,infosimulabo.it,,42.7436932,11.868015699999999
251,acquapendente,viterbo,non mibact,omr,sistema museale del lago di bolsena,,resina,,museo del fiore,predio giardino 37,frazione torre alfina,,1021.0,763733642,763731175,infomuseodelfiore.it,www.museodelfiore.it,42.7477229,11.8630202
252,itri,latina,non mibact,omr,,,demos,,museo demoetnoantropologico del brigantaggio nel lazio meridionale,corso appio claudio 268,,,4020.0,771721061,771721061,infomuseobrigantaggio.it,www.museobrigantaggio.it,41.2901261,13.524151199999999
253,pomezia,roma,non mibact,omr,,,proust,,museo civico archeologico lavinium,via pratica di mare,borgo di pratica,edificio moderno,40.0,691984744,691984744,museo.laviniumyahoo.it,www.museopomezia.it,41.6068257,12.503282400000002
254,frosinone,frosinone,non mibact,omr,,,,,museo archeologico comunale,via xx settembre 32,centro storico,c/o cattedrale di s. maria,3100.0,775212314,775859292,museocomune.frosinone.it,www.comune.frosinone.it,41.639362299999995,13.3523809
255,monte porzio catone,roma,non mibact,omr,sistema museale dei castelli romani e prenestini museumgrandtour,sistema museale urbano di monte porzio catone,demos,,museo diffuso del vino,via vittorio emanuele ii 22 32 46,monte porzio catone,,40.0,689686503,69447471,museicomune.monteporziocatone.rm.it,www.comune.monteporziocatone.rm.it,41.816715,12.71471
256,roma,roma,mibact,,,,,,parco archeologico delle tombe della via latina,via arco di travertino 151,,,178.0,67809255,67809255,,www.archeoroma.beniculturali.it/siti archeologici/suburbio/tombe via latina,41.86343,12.532869999999999
257,roma,roma,mibact,,,,,,museo nazionale darte orientale giuseppe tucci,via merulana 248,,palazzo brancaccio,185.0,64697481,646974837,mn aobeniculturali.it,www.museorientale.beniculturali.it,41.89445,12.500539999999999
258,roma,roma,non mibact,,,,,,archivio storico e museo birra peroni,via r. birolli 8,roma,museo peroni,155.0,622544296,62283442,museoperoni.it,www.birraperoni.it,41.902813,12.5991294
259,roma,roma,non mibact,,,,,,museo di storia della medicina,viale delluniversita 34/a,universit di roma la sapienza,dipartimento di medicina molecolare,185.0,649914445,64451721,alessandro.arutauniroma1.it,www.histmed.it/museo/museo.htm,41.904791499999995,12.5136953
260,roma,roma,non mibact,omr,,sistema musei in comune,,,museo carlo bilotti aranciera di villa borghese,viale fiorello la guardia,,aranciera di villa borghese,197.0,685357446,68845630,museo.bilotticomune.roma.it,www.museocarlobilotti.it,41.913337799999994,12.4827497
261,roma,roma,mibact,,,,,,galleria borghese,piazzale scipione borghese 5,,palazzo,197.0,68413979,68840756,sspsae rm.borghesebeniculturali.it,http//galleriaborghese.beniculturali.it,41.914359999999995,12.49235
262,roma,roma,mibact,,,,,,museo nazionale etrusco di villa giulia,piazzale di villa giulia,,,196.0,63226571,63202010,sba embeniculturali.it,www.villagiulia.beniculturali.it,41.9182999,12.474606699999999
263,roviano,roma,non mibact,omr,sistema medaniene,,demos,,museo della civilta contadina valle dellaniene,piazza s. giovanni 1,,castello brancaccio,27.0,774903143,774903008,rovianomuseotiscali.it,,42.050936,12.964165
264,anguillara sabazia,roma,non mibact,,,,,,museo storico della civilta contadina e della cultura popolare augusto montori,torre orsini snc,anguillara sabazia,giardini del torrione,61.0,699608241,69994096,associazionesabatetiscali.it,www.parcodeilaghi.it/museo/visitamuseo.htm,42.0914786,12.271545800000002
265,bracciano,roma,non mibact,omr,,,musart,,museo civico di bracciano,via umberto primo 5,,,62.0,699805106,699805106,museocomune.bracciano.rm.it,www.regione.lazio.it/musei/bracciano/index.php,42.1036275,12.1768752
266,capena,roma,non mibact,omr,,,musart,,art forum wurth,viale buona fortuna2,loc. scorano,,60.0,06 901 038 00,06 901 034 00,art.forumwuerth.it,www.artforumwuerth.it,42.12335,12.59595
267,calcata,viterbo,non mibact,,,,,,museo della civilta contadina,via san giovanni,,c/o chiesa di s.giovanni,1030.0,761587989,,gisa.federicilibero.it,,42.2165023,12.418712199999998
268,nepi,viterbo,non mibact,omr,,,proust,,museo civico archeologico di nepi,via xiii settembre 1,,palazzo comunale,1036.0,761570604,761557960,museocomune.nepi.vt.it,,42.242992,12.347864999999999
269,antrodoco,rieti,non mibact,omr,,,musart,,museo della citta lin delija e carlo cesi,corso roma 9,antrodoco,,2013.0,746578379,746578623,culturaesportcomunediantrodoco.it,www.museoantrodoco.it,42.417332,13.07929
270,vasanello,viterbo,non mibact,omr,,,,,museo della ceramica di vasanello,via s. salvatore 19,vasanello,palazzo comunale,1030.0,7614089302,3392077494,tamarapatillilibero.it,,42.4183899,12.3469114
271,bomarzo,viterbo,non mibact,,,,,,parco dei mostri sacro bosco di bomarzo,,gioardino,,1020.0,761924029,761924029,boscosacrointerfree.it,,42.4916599,12.2475933
272,bagnoregio,viterbo,non mibact,omr,sistema museale del lago di bolsena,,resina,,museo geologico delle frane,piazza san donato,civita di bagnoregio,palazzo alemanni,1022.0,328 6657205,,infomuseogeologicodellefrane.it,,42.6278153,12.1136284
273,lubriano,viterbo,non mibact,omr,,,resina,,museo naturalistico,piazza col di lana 12,ex casa di padella,,10120.0,0761 780391 327 0289027,,infomuseolubriano.com,,42.636462,12.1108139
274,gradoli,viterbo,non mibact,omr,sistema museale del lago di bolsena,,musart,,museo del costume farnesiano,piazza luigi palombini 2,,palazzo farnese,1010.0,761456082,761456052,comunedigradolilegalmail.it,www.comune.gradoli.vt.it,42.644090000000006,11.85619
275,pontecorvo,frosinone,non mibact,,,,,,tesoro di s. bartolomeo,basilica cattedrale san bartolomeo ap.,pontecorvo,c/o cattedrale,3037.0,3313469988,,cattedralepontecorvolibero.it,www.cattedralepontecorvo.it,41.4545679,13.6637674
276,anzio,roma,non mibact,,,,,,museo dello sbarco di anzio,via di villa adele snc,anzio,villa adele,42.0,69848059,69848059,infosbarcodianzio.it,www.sbarcodianzio.it,41.4495955,12.6197253
277,aquino,frosinone,non mibact,omr,,,proust,,museo della citta,via latina antica snc,,,3031.0,776729061,0776728603 / 0776729,museoaquinolibero.it museoaquinovirgilio.it,,41.4993641,13.7039714
278,arcinazzo romano,roma,non mibact,omr,sistema medaniene sistema pre.gio,,proust,,museo comunale villa di traiano,via sublacense km 30 snc,altipiani di arcinazzo,,20.0,774808006,774808263,infoarcinazzo.org,www.arcinazzo.org,41.878652,13.1163715
279,arcinazzo romano,roma,non mibact,,,,,,museo della cultura contadina,via del forno snc,,,20.0,774808006,774808263,infoarcinazzo.org,,41.878652,13.1163715
280,ardea,roma,mibact,,,,,,museo giacomo manz,via laurentina km 32800,,,40.0,69135022,69135022,marcella.cossubeniculturali.it,www.museomanzu.beniculturali.it,41.6079691,12.5432586
281,arpino,frosinone,non mibact,,,,,,museo dellarte della lana,via dellaquila romana snc,arpino,ex chiesa di s. domenico,3033.0,776649241,776850057,museiciviciarpinolibero.it,www.arpinoturismo.it,41.6451345,13.612625099999999
282,atina,frosinone,non mibact,omr,,,proust,,museo archeologico di atina e della valle di comino,via vittorio emanuele iii snc,atina,ex edificio scolastico g. visocchi atina,3042.0,776609131,776609131,museo.atinavirgilio.it,www.comune.atina.fr.it,41.619337200000004,13.8015603
283,ausonia,frosinone,non mibact,omr,,,demos,,museo della pietra,via san michele snc,centro storico,c/o castello medievale,3040.0,0776 952021,0776 953014,comunediausonialibero.it,,41.3570246,13.750743599999998
284,blera,viterbo,non mibact,omr,,,demos,,museo civico gustavo vi adolfo di svezia sezione demo antropologica,via umberto i snc,blera,,1010.0,761471057,761470566,info museoblerayahoo.it,,42.2759082,12.025463900000002
285,bracciano,roma,non mibact,,,,,,museo dellopera del duomo di s. stefano bruno panunzi,largo della cattedrale,,,62.0,3392326963,,p.s.stefanobraccianogmail.com,www.forumclodii.org,42.103913299999995,12.1786837
286,calcata,viterbo,non mibact,omr,,,musart,,opera bosco museo di arte nella natura,localita colle snc,,,1030.0,761588048,,operaboscooperabosco.eu,www.operabosco.eu,42.21656,12.421149699999999
287,canepina,viterbo,non mibact,omr,,,demos,,museo delle tradizioni popolari di canepina,largo maria de mattias 7,,ex convento dei carmelitani,1030.0,761327677,761652359,infocmcimini.it,,42.3818609,12.230836300000002
288,capena,roma,mibact,,,,,,area archeologica di lucus feroniae e museo archeologico,strada statale 3 bis tiberina km 18 500,,edificio costruito ex novo,60.0,69085173,,,,42.1409078,12.5394045
289,capranica,viterbo,non mibact,omr,,,,,museo delle confraternite,via annibal caro,,,1012.0,0761 6679209,0761 6679232,capranicasegreteriahotmail.com,,42.259544500000004,12.174631100000001
290,carpineto romano,roma,non mibact,omr,sistema dei monti lepini,,,,museo la reggia dei volsci,via della torre antica 4,carpineto romano,,32.0,69717434,697180029,museolareggiaalternatyva.it,,41.608664399999995,13.0821906
291,carpineto romano,roma,non mibact,,,,,,mostra permanente i cimeli di leone xiii,via la rosa snc,,c/o centro culturale san nicola,32.0,697180028,697180029,culturacacarpinetocarpinetoromano.it,,41.608664399999995,13.0821906
292,cassino,frosinone,mibact,,,,,,museo archeologico nazionale g. carettoni,via di montecassino km 100,,,3043.0,0776 301168,0776 301168,sba laz.museocassinobeniculturali.it,www.archeolz.arti.beniculturali.it,41.4907889,13.833377599999999
293,ceprano,frosinone,non mibact,,,,,,piccolo museo,via mons. pietro corvi 1,padri carmelitani scalzi ceprano,convento,3024.0,775914148,775914148,cepranocarmelitaniroma.it,,41.54435529999999,13.512173
294,cori,latina,non mibact,omr,sistema dei monti lepini,,proust,,museo della citta e del territorio,via giacomo matteotti,cori,,4010.0,696617243,696617243,museocomune.cori.lt.it,,41.6435151,12.9136293
295,fara in sabina,rieti,non mibact,,,,,,abbazia di farfa,via del monastero 1,,,2032.0,765277065,,farfenpriorlibero.it,www.abbaziadifarfa.it,42.2212858,12.7184454
296,fiano romano,roma,mibact,,,,,,villa dei volusii,via tiberina km 17300,bambocci,,65.0,,,,,42.170257299999996,12.5922521
297,formello,roma,non mibact,omr,,,proust,,museo civico dellagro veientano,piazza san lorenzo snc,formello,palazzo chigi,60.0,690194240,69089577,museocomune.formello.rm.it,www.comune.formello.rm.it,42.0820027,12.4036987
298,gaeta,latina,non mibact,omr,,,,,museo diocesano e della religiosita del parco dei monti aurunci,piazza cardinale tommaso de vio 9,,palazzo cardinale tommaso de vio,4024.0,771700287,7714530234,beniculturaliarcidiocesigaeta.it,,41.2107299,13.5714285
299,gallese,viterbo,non mibact,omr,,,,,museo di gallese centro culturale marco scacchi,via lorenzo filippini snc gallese,,,1035.0,761495503,761495535,museocomune.gallese.vt.it,,42.371691299999995,12.402600999999999
300,genazzano,roma,non mibact,omr,,,,,museo del santuario madre del buon consiglio,corso cardinale vannutelli 2,,convento del santuario della madonna del buon consiglio,30.0,06 9579002,06 95570163,santuariombcgmail.com,www.genazzanobuonconsiglio.it/index.phpoptioncom contentviewarticleid77itemid69,41.8361406,12.973345199999999
301,grottaferrata,roma,mibact,,,,,,abbazia greca di san nilo,via di san nilo snc,grottaferrata,chiesa di santa maria,46.0,06 9459309,06 9456734,segreteriaabbaziagraca.it,www.abbaziagreca.it,41.7865663,12.673591400000001
302,guidonia montecelio,roma,non mibact,,,,,,antiquarium don celestino piccolini,via monte albano snc,montecelio,,12.0,0774 511053 301290,0774 303434,pubblicaistruzioneguidonia.org,www.guidonia.org,41.9939694,12.7245045
303,latera,viterbo,non mibact,omr,sistema museale del lago di bolsena simulabo,,demos,,museo della terra,via dellosteria snc,latera,grancia di san pietro,1010.0,761459041,761459476,museocomune.latera.vt.it,www.simulabo.it /www.regione.lazio.it/musei/latera/,42.6300003,11.828067800000001
304,latina,latina,non mibact,omr,,,,,museo di piana delle orme,via migliara 435 n.29,borgo faiti,,4100.0,773258708,773255000,infopianadelleorme.it,,41.440428600000004,12.967055
305,leonessa,rieti,non mibact,,,,,,museo della nostra terra,via comunale di ocre leonessa 79,frazione ocre comune di leonessa,,2016.0,335465412,,franco.bonellialice.it,,42.5660721,12.962444999999999
306,licenza,roma,mibact,,,,,,villa di orazio,via licinese snc,,,26.0,06 3265961,06 3214447,sba lazbeniculturali.it,www.archeolz.arti.beniculturali.it,42.072782700000005,12.9004489
307,maenza,latina,non mibact,omr,sistema dei monti lepini,,musart,,museo del paesaggio,piazza della portella,rione belle donne,castello caetani aldobrandini,4010.0,0773 951310,,comunemaenzalibero.it,,41.5231443,13.1821084
308,marino,roma,non mibact,omr,,,,,museo archeologico umberto mastroianni,largo jacopa de settesoli snc,marino,ex chiesa di s. lucia,47.0,69385681,69385681,museocivicomarinointerfree.it,,41.770086600000006,12.6585371
309,minturno,latina,mibact,,,,,,comprensorio archeologico di minturnae,via punta fiume snc,marina di minturno,,4026.0,0771 622239,0771 680093,sba laz.minturnaebeniculturali.it,www.archeolz.arti.beniculturali.it,41.2657426,13.7443642
310,norma,latina,non mibact,omr,,,proust,,museo civico archeologico padre annibale gabriele saggi,via della liberazione snc,norma,palazzo ex comunale,4010.0,773353806,773354186,culturacomunedinorma.it,www.regione.lazio.it/musei/civicoarcheologiconorma/,41.5845715,12.975238000000001
311,olevano romano,roma,non mibact,omr,sistema pre.gio,,,,museo sulla pittura di paesaggio,via h. hindorf 1,,villa de pisa,35.0,06 95600118,,degiustigmail.com,www.amolevano.it,41.860647799999995,13.031221
312,orte,viterbo,non mibact,,,,,,museo delle confraternite,piazza del popolo snc,orte,c/o chiesa di santagostino,1028.0,3206280189,761402640,robertorondelliconfraterniteorte.it,www.confraterniteorte.it,42.457441100000004,12.3869837
313,orte,viterbo,non mibact,omr,,,musart,,museo diocesano,piazza colonna 5,,ex chiesa di san silvestro,1028.0,0761 404357,,museodartesacraortegmail.com,www.diocesicivitacastellana.it,42.460018,12.386315
314,palestrina,roma,mibact,,sistema museale dei castelli romani e prenestini museumgrandtour,,,,museo archeologico nazionale di palestrina e santuario della fortuna primigenia,piazza della cortina 1,,c/o palazzo barberini,36.0,06 9538100,06 9538100,sba laz.palestrinabeniculturali.it,www.archeolz.arti.beniculturali.it,41.8405653,12.8925954
315,petrella salto,rieti,non mibact,omr,,,,,museo delle suore di santa filippa mareri ex monastero,piazza santa filippa mareri 17,borgo san pietro,,2025.0,746558134,746558367,filippaborgolibero.it,www.suoresantafilippa.it,42.272890999999994,13.064391
316,pontinia,latina,non mibact,omr,,,demos,,museo agro pontino,piazza john kennedy 1,,,4014.0,0773 867422,,infomuseoagropontino.it,www.museoagropontino.it,41.404398799999996,13.0437426
317,posta fibreno,frosinone,non mibact,,,,,,museo naturalistico etnografico della riserva naturale lago di posta fibreno,piazza cesare battisti snc,,,3030.0,776888021,776888021,labterlibero.it,,41.694545899999994,13.696616500000001
318,priverno,latina,non mibact,omr,sistema dei monti lepini,sistema museale urbano di priverno,,,museo per la matematica giochiamo allinfinito,via san martino snc,sp san martino 10,castello di san martino,4015.0,773904601,773904973,giochiamoallinfinitolibero.it,www.sistemamuseo.it/museoid.phpuid180,41.469922,13.183253400000002
319,priverno,latina,non mibact,omr,sistema dei monti lepini,sistema museale urbano di priverno,proust,,polo medievale del museo archeologico di priverno,via dei guitti snc,fossanova,antica forestiera cistercense,4015.0,773938006,773938006,musarchprivernolibero.it,,41.469922,13.183253400000002
320,priverno,latina,mibact,,,,,,abbazia di fossanova,via s.tommaso daquino,fossanova,,4010.0,0773 939061,0773 939382,abbazialibero.it,www.abbaziadifossanova.it,41.4381536,13.195752800000003
321,priverno,latina,non mibact,omr,sistema dei monti lepini,sistema museale urbano di priverno,,,area archeologica privernum,sr monti lepini km 28800,loc. mezzagosto,antica privernum,4010.0,0773 905065,0773 905065,musarchprivernolibero.it,http//musarchpriverno.it,41.473427,13.179527300000002
322,rieti,rieti,non mibact,omr,,,musart proust,,museo civico di rieti,piazza vittorio emanuele ii 1,rieti,municipio,2100.0,0746287212 287280,746253173,museocivicocomune.rieti.it museocivicorietigmail.com,www.regione.lazio.it/musei/rieti/,42.4055045,12.8658321
323,riofreddo,roma,non mibact,omr,sistema medaniene,,demos proust,x,museo delle culture villa garibaldi,via costanza garibaldi 10,,,20.0,774929186,774929501,mudeculibero.it,,42.0595895,12.9978217
324,roma,roma,non mibact,,,,,,museo del deposito pleistocenico di casal de pazzi,via ciciliano snc,rebibbia,angolo con via egidio galbani,156.0,624404006,62417187,patrizia.gioiacomune.roma.it,www.sovraintendenzaroma.it/i luoghi/musei 1/altri musei e collezioni 1/museo di casal de pazzi deposito pleistocenico,41.932575,12.5699643
325,roma,roma,non mibact,omr,,sistema musei in comune,,,museo dellara pacis,lungotevere in augusta snc,roma,edificio di architettura contemporanea,186.0,632652497,632652497,info.arapaciscomune.roma.it,www.arapacis.it,41.896600799999995,12.4753205
326,roma,roma,non mibact,,,,,,museo della cartolina,via del cardello 14a presso enrico sturani,roma,,184.0,6.486.970,,sturamailyahoo.it,,41.889187,12.4982572
327,roma,roma,non mibact,,,,,,museo di chimica,piazzale a. moro 5 universita degli studi la sapienza dipartimento di chimica,roma,,185.0,649913167,649913725,museodichimicauniroma1.it,,41.8977003,12.509727400000001
328,roma,roma,non mibact,,,,,,casa protostorica di fidene,via quarrata snc,,,138.0,624404006,62017187,carlo.persianicomune.roma.it,,41.991990799999996,12.518330699999998
329,roma,roma,non mibact,omr,,,,,museo laboratorio della mente,piazza s. maria della piet 5,padiglione 6,pad. 6 ex ospedale pschiatrico santa maria della piet,135.0,668352927,668352923,infomuseodellamente.it,www.museodellamente.it,41.9407108,12.4191006
330,roma,roma,non mibact,omr,,,,,museo ebraico di roma,largo xvi ottobre,sinagoga,c/o sinagoga,186.0,668400661,668400639,infomuseoebraico.roma.it,www.museoebraico.roma.it,41.8709925,12.4852653
331,roma,roma,non mibact,,,,,,museo della strumentazione e informazione cristallografica,via salaria km 293,area ricerca cnr rm1,c/o istituto di cristallografia del cnr sede di roma,16.0,690672634,690672630,fausto.daprileic.cnr.it,www.cnr.it/sitocnr/iservizi/museidelcnr/cristallografica/informazionecristallografica.html,41.902783500000005,12.4963655
332,roma,roma,non mibact,,,,,,galleria dellaccademia nazionale di san luca,piazza dellaccademia di san luca 77 00187 roma,,,187.0,66798850,669924362,archivioaccademiasanluca.it,www.accademiasanluca.it,41.901669,12.483614900000001
333,roma,roma,mibact,,,,,x,museo hendrik christian andersen,via p. s. mancini 18/24,,,196.0,63219089,63219089,s gnam.museoandersenbeniculturali.it,www.museoandersen.beniculturali.it,41.914155900000004,12.470504400000001
334,roma,roma,mibact,,,,,,pantheon,piazza della rotonda snc,,,186.0,06 683002,06 683002,sbap rm.pantheonbeniculturali.it,www.sbap roma.beniculturali.it,42.0339149,13.4299497
335,roma,roma,mibact,,,,,,monumento a vittorio emanuele ii vittoriano,piazza venezia,,,186.0,66780664,658434787,dr lazbeniculturali.it,www.lazio.beniculturali.it,41.8959938,12.482046
336,san donato val di comino,arsoli,non mibact,,,,,,museo della civilta contadina,viale tenente maurizio simone snc,,edificio scuola elementare,3046.0,776508701,776508918,infocomune.sandonatovaldicomino.fr.it,,41.7089032,13.812641399999999
337,san martino al cimino,viterbo,non mibact,omr,rete urbana di viterbo,,,,museo dellabate,piazza delloratorio,,scriptorium dellabbazia cistercense,1100.0,0761 379803,,,,42.369345700000004,12.1250064
338,santoreste,roma,non mibact,omr,,,,,museo naturalistico del monte soratte,piazza cavalieri caccia,,,60.0,761578185,761578443,museodelmontesorattelibero.it museodelfiumelibero.it,,42.2520515,12.4611825
339,santa marinella,roma,non mibact,omr,,,proust,,museo del mare e della navigazione antica,via del castello aurelia s.s 1 km. 52600,area archeologica di pyrgi,castello di santa severa,,0766 570077,,,www.museosantasevera.org,42.0165652,11.955297199999999
340,saracinesco,roma,non mibact,omr,sistema pre.gio,,,,museo del tempo,centro storico e borgo allaperto,,,20.0,,,,www.tibursuperbum.it/ita/escursioni/saracinesco/museotempo.htm,42.0031174,12.953347099999998
341,sermoneta,latina,non mibact,omr,,,musart,,museo diocesano darte sacra sezione di sermoneta,piazza santa maria snc,,,4010.0,7736986105,7736986111,beniculturalidiocesi.latina.it,,41.5484988,12.9839569
342,sermoneta,latina,non mibact,omr,,,musart,,abbazia di valvisciolo,via badia 14,monte corvino,monastero cistercense,4013.0,0773 30013,,abbaziavalviscioloyahoo.it,,41.5499706,12.983686800000001
343,serrone,frosinone,non mibact,,,,,,esposizione permanente di costumi teatrali,piazza plebiscito,serrone,centro storico,3010.0,775523064,775523277,turismo.serronegmail.com,www.comune.serrone.fr.it,41.8433999,13.0852524
344,sezze,latina,non mibact,,,,,,foro appio,via appia km 72800 5,borgo faiti,,4010.0,773877434,773800247,infoforoappiohotel.it,www.foroappiohotel.it,41.4994158,13.0617578
345,sora,frosinone,non mibact,omr,,,proust,,museo civico della media valle delliri,piazza mayer ross snc,sora,,3039.0,776833327,776833327,museo.soracomune.sora.fr.it,www.comune.sora.fr.it,41.7188539,13.613049100000001
346,sperlonga,latina,mibact,,,,,,museo archeologico nazionale e area archeologica,via flacca km 16300,,,4029.0,0771 548028,0771 548028,sba laz.sperlongabeniculturali.it,www.archeolz.arti.beniculturali.it,41.2259953,13.515243400000001
347,sutri,viterbo,mibact,,,,,,anfiteatro romano,via cassia km 49,,,1015.0,,,,,42.2439027,12.2185381
348,tarquinia,viterbo,mibact,,,,,,necropoli,via ripagretta snc,calvario,,1016.0,0766 856308,,,htpp//etruriameridionale.beniculturali.it/index.phpit/201/descrizione,42.2541846,11.7575684
349,tivoli,roma,mibact,,,,,,area archeologica di villa adriana,largo marguerite yourcenar 1,villa adriana,,10.0,0774 530203,0774 531979,villaadrianabeniculturali.it,www.villaadriana.beniculturali.it,41.959817,12.8022261
350,tolfa,roma,non mibact,,,,,,museo civico archeologico,largo 15 marzo 1799 snc,,ex convento dei padri agostiniani,59.0,76692127,7669390243,museotolfatiscali.it,,42.1497058,11.9380648
351,trevi nel lazio,frosinone,non mibact,omr,sistema pre.gio,,,,museo archeologico domenico antonio pierantoni,via eresio fertore,,castello caetani,3010.0,,,,,41.8755794,12.6115341
352,tuscania,viterbo,non mibact,,,,,,raccolta di montebello del maestro giuseppe cesetti,centro strada montebello 3,,,1017.0,761442695,,,,42.3550533,11.8011922
353,tuscania,viterbo,mibact,,,,,,museo archeologico nazionale,largo mario moretti 1,,c/o chiesa della madonna del riposo,1017.0,0761 436209,0761 436209,sba embeniculturali.it,htpp//etruriameridionale.beniculturali.it,42.421493100000006,11.8705543
354,vallepietra,roma,non mibact,,,,,,sale museali ex voto santuario santissima trinita valle pietra,santuario santissima trinita,vallepietra,santuario,20.0,774899084,774899084,p.vallepietratiscalinet.it,,41.9257111,13.230550099999999
355,viterbo,viterbo,non mibact,,,,,,confraternita ss.sacramento e s.rosario,piazza oratorio 5,frazione s. martino al cimino,abbazia cistercense di s.martino al cimino,1100.0,761379301,,confraternitasanmartinogmail.com,www.abbaziasanmartinoalcimino.it,42.4157698,12.113354
356,viterbo,viterbo,mibact,,,,,,area archeologica antica citt di ferento,strada provinciale teverina km 8000,,,1100.0,,,,,42.4206766,12.107669
